[
  {
    "lat": 37.38311857298441,
    "lng": -5.990224048237083,
    "title": "Seville Cathedral, Alcázar and Archivo de Indias",
    "description": "Lorem ipsum dolor sit amet, consectetur adipiscing elit.",
    "link": "https://moneyoffthebooks.com/seville-cathedral",
    "image": "https://upload.wikimedia.org/wikipedia/commons/thumb/d/df/Plaza_Virgen_de_los_Reyes%2C_Seville%2C_Spain_-_Sep_2009.jpg/640px-Plaza_Virgen_de_los_Reyes%2C_Seville%2C_Spain_-_Sep_2009.jpg",
    "region": "europe"
  },
  {
    "lat": -7.607355,
    "lng": 110.203804,
    "title": "Borobudur Temple Compounds",
    "description": "Lorem ipsum dolor sit amet, consectetur adipiscing elit.",
    "link": "https://moneyoffthebooks.com/borobudur-temple-compounds",
    "image": "https://upload.wikimedia.org/wikipedia/commons/thumb/2/25/Pradaksina.jpg/640px-Pradaksina.jpg",
    "region": "asia"
  },
  {
    "lat": -7.75222,
    "lng": 110.49167,
    "title": "Prambanan Temple Compounds",
    "description": "Lorem ipsum dolor sit amet, consectetur adipiscing elit.",
    "link": "https://moneyoffthebooks.com/prambanan-temple-compounds",
    "image": "https://upload.wikimedia.org/wikipedia/commons/thumb/7/72/Prambanan_temple%2C_Central_Java%2C_Indonesia%2C_20220818_1311_9139.jpg/640px-Prambanan_temple%2C_Central_Java%2C_Indonesia%2C_20220818_1311_9139.jpg",
    "region": "asia"
  },
  {
    "lat": 48.804722,
    "lng": 2.121782,
    "title": "Palace and Park of Versailles",
    "description": "Lorem ipsum dolor sit amet, consectetur adipiscing elit.",
    "link": "https://moneyoffthebooks.com/palace-park-versailles",
    "image": "https://assets.zyrosite.com/YrD3Vkr0kkTwz8Xv/palace-of-versailles_royal-chapel-wiki-commons-yrdpmH8piskrRpfI.jpg",
    "region": "europe"
  },
  {
    "lat": 51.50853,
    "lng": -0.076132,
    "title": "Tower of London",
    "description": "Lorem ipsum dolor sit amet, consectetur adipiscing elit.",
    "link": "https://moneyoffthebooks.com/tower-of-london",
    "image": "https://upload.wikimedia.org/wikipedia/commons/thumb/2/2c/Tower_of_London_viewed_from_the_River_Thames.jpg/640px-Tower_of_London_viewed_from_the_River_Thames.jpg",
    "region": "europe"
  },
  {
    "lat": 51.49939,
    "lng": -0.127465,
    "title": "Palace of Westminster and Westminster Abbey including Saint Margaret’s Church",
    "description": "Lorem ipsum dolor sit amet, consectetur adipiscing elit.",
    "link": "https://moneyoffthebooks.com/palace-of-westminster-abbey",
    "image": "https://upload.wikimedia.org/wikipedia/commons/thumb/9/97/Palace_of_Westminster%2C_London_-_Feb_2007.jpg/640px-Palace_of_Westminster%2C_London_-_Feb_2007.jpg",
    "region": "europe"
  },
  {
    "lat": 51.174,
    "lng": -1.8218,
    "title": "Stonehenge, Avebury and Associated Sites",
    "description": "Lorem ipsum dolor sit amet, consectetur adipiscing elit.",
    "link": "https://moneyoffthebooks.com/stonehenge-avebury",
    "image": "https://upload.wikimedia.org/wikipedia/commons/thumb/b/bb/Stonehenge%2C_Condado_de_Wiltshire%2C_Inglaterra%2C_2014-08-12%2C_DD_18.JPG/640px-Stonehenge%2C_Condado_de_Wiltshire%2C_Inglaterra%2C_2014-08-12%2C_DD_18.JPG",
    "region": "europe"
  },
  {
    "lat": 39.8628,
    "lng": -4.0273,
    "title": "Historic City of Toledo",
    "description": "Lorem ipsum dolor sit amet, consectetur adipiscing elit.",
    "link": "https://moneyoffthebooks.com/historic-city-of-toledo",
    "image": "https://upload.wikimedia.org/wikipedia/commons/thumb/d/d4/Puente_de_San_Mart%C3%ADn._Toledo%2C_Spain.jpg/640px-Puente_de_San_Mart%C3%ADn._Toledo%2C_Spain.jpg",
    "region": "europe"
  },
  {
    "lat": 37.8916,
    "lng": -4.7739,
    "title": "Historic Centre of Cordoba",
    "description": "Lorem ipsum dolor sit amet, consectetur adipiscing elit.",
    "link": "https://moneyoffthebooks.com/historic-centre-of-cordoba",
    "image": "https://upload.wikimedia.org/wikipedia/commons/thumb/2/2b/Historic_centre_of_C%C3%B3rdoba_Part1_049.jpg/640px-Historic_centre_of_C%C3%B3rdoba_Part1_049.jpg",
    "region": "europe"
  },
  {
    "lat": 40.58167,
    "lng": -4.12583,
    "title": "Monastery and Site of the Escurial, Madrid",
    "description": "Lorem ipsum dolor sit amet, consectetur adipiscing elit.",
    "link": "https://moneyoffthebooks.com/monastery-escurial-madrid",
    "image": "https://upload.wikimedia.org/wikipedia/commons/thumb/b/b9/Monasterio_de_El_Escorial_01.jpg/640px-Monasterio_de_El_Escorial_01.jpg",
    "region": "europe"
  },
  {
    "lat": 41.4036,
    "lng": 2.1744,
    "title": "Works of Antoni Gaudí",
    "description": "Lorem ipsum dolor sit amet, consectetur adipiscing elit.",
    "link": "https://moneyoffthebooks.com/works-of-antoni-gaudi",
    "image": "https://upload.wikimedia.org/wikipedia/commons/thumb/a/a3/UNESCO%2C_SPAIN-BARCELONA%2C_WORKS_OF_ANTONIO_GAUD%C3%8D%2C_PARK_G%C3%9CELL_-_panoramio.jpg/640px-UNESCO%2C_SPAIN-BARCELONA%2C_WORKS_OF_ANTONIO_GAUD%C3%8D%2C_PARK_G%C3%9CELL_-_panoramio.jpg",
    "region": "europe"
  },
  {
    "lat": 37.17667,
    "lng": -3.59444,
    "title": "Alhambra, Generalife and Albayzín, Granada",
    "description": "Lorem ipsum dolor sit amet, consectetur adipiscing elit.",
    "link": "https://moneyoffthebooks.com/alhambra-generalife-albayzin",
    "image": "https://upload.wikimedia.org/wikipedia/commons/thumb/a/a8/Alhambra_evening_panorama_Mirador_San_Nicolas_sRGB-1_%28cropped%29.jpg/640px-Alhambra_evening_panorama_Mirador_San_Nicolas_sRGB-1_%28cropped%29.jpg",
    "region": "europe"
  },
  {
    "lat": 50.941357,
    "lng": 6.958307,
    "title": "Cologne Cathedral",
    "description": "Lorem ipsum dolor sit amet, consectetur adipiscing elit.",
    "link": "https://moneyoffthebooks.com/cologne-cathedral",
    "image": "https://upload.wikimedia.org/wikipedia/commons/thumb/1/1e/Cologne-Cathedral-0360.jpg/640px-Cologne-Cathedral-0360.jpg",
    "region": "europe"
  },
  {
    "lat": -7.801389,
    "lng": 110.364778,
    "title": "The Cosmological Axis of Yogyakarta and its Historic Landmarks",
    "description": "Lorem ipsum dolor sit amet, consectetur adipiscing elit.",
    "link": "https://moneyoffthebooks.com/cosmological-axis-of-yogyakarta",
    "image": "https://upload.wikimedia.org/wikipedia/commons/thumb/8/8d/Prajurit_Kraton_Solo.jpg/640px-Prajurit_Kraton_Solo.jpg",
    "region": "asia"
  },
  {
    "lat": 29.36167,
    "lng": -98.48028,
    "title": "San Antonio Missions",
    "description": "Lorem ipsum dolor sit amet, consectetur adipiscing elit.",
    "link": "https://moneyoffthebooks.com/san-antonio-missions",
    "image": "https://upload.wikimedia.org/wikipedia/commons/thumb/2/25/Main_entrance%2C_Mission_San_Jose%2C_San_Antonio_Texas.jpg/640px-Main_entrance%2C_Mission_San_Jose%2C_San_Antonio_Texas.jpg",
    "region": "north america"
  },
  {
    "lat": 18.466667,
    "lng": -66.125,
    "title": "La Fortaleza and San Juan National Historic Site in Puerto Rico",
    "description": "A Spanish stronghold guarding the Caribbean, San Juan’s historic forts anchor the story of Conquistadora by Esmeralda Santiago, where ambition, upheaval, and identity collide.",
    "link": "https://moneyoffthebooks.com/la-fortaleza",
    "image": "https://upload.wikimedia.org/wikipedia/commons/thumb/e/eb/Umbrella_street_Old_San_Juan_SJU_06_2019_8800.jpg/640px-Umbrella_street_Old_San_Juan_SJU_06_2019_8800.jpg",
    "region": "caribbean"
  },
  {
    "lat": -12.045936,
    "lng": -77.030527,
    "title": "Historic Centre of Lima",
    "description": "Called the City of Kings, Lima’s historic centre blends colonial grandeur with living culture. Baroque churches and carved balconies line streets.",
    "link": "https://moneyoffthebooks.com/historic-centre-of-lima",
    "image": "https://upload.wikimedia.org/wikipedia/commons/thumb/5/57/Lima_cath%C3%A9drale.jpg/640px-Lima_cath%C3%A9drale.jpg",
    "region": "south america"
  },
  {
    "lat": -13.516555,
    "lng": -71.979056,
    "title": "City of Cusco",
    "description": "Cusco sits high in the Andes. Once the capital of the Inca Empire, Cusco was laid out in the shape of a sacred puma, blending cosmology, imperial authority, and ritual space.",
    "link": "https://moneyoffthebooks.com/city-of-cusco",
    "image": "https://assets.zyrosite.com/YrD3Vkr0kkTwz8Xv/sacsayhuama-n-7.25.2025-mine-ytlnHhXojGXolMtH.jpg",
    "region": "south america"
  },
  {
    "lat": 48.863611,
    "lng": 2.313272,
    "title": "Paris, Banks of the Seine",
    "description": "From Notre-Dame to the Louvre, its bridges and quays frame centuries of art, revolution, and romance. The very spirit is captured in Victor Hugo’s The Hunchback of Notre-Dame.",
    "link": "https://moneyoffthebooks.com/paris-banks-of-the-seine",
    "image": "https://upload.wikimedia.org/wikipedia/commons/thumb/5/50/Eiffel_Tower_and_Pont_d%27I%C3%A9na%2C_Paris_3_December_2016.jpg/640px-Eiffel_Tower_and_Pont_d%27I%C3%A9na%2C_Paris_3_December_2016.jpg",
    "region": "europe"
  }
]
